{
   "type": "FeatureCollection",
   "features": [
  {
    "type": "Feature",
    "geometry": {
       "type": "Point",
       "coordinates":  [ 105.827742,21.0197216 ]
    },
    "properties": {
    "Address":"123 Ô Chợ Dừa, Hà Nội, Vietnam",
    "name": "Regiustea"
    }
  },
  {
    "type": "Feature",
    "geometry": {
       "type": "Point",
       "coordinates":  [105.845442,21.024991]
    },
    "properties": {
    "Address":"56 Lý Thường Kiệt, Trần Hưng Đạo, Hoàn Kiếm, Hà Nội, Vietnam",
    "name": "Gong Cha Lý Thường Kiệt"
    }
  },
  {
    "type": "Feature",
    "geometry": {
       "type": "Point",
       "coordinates":  [ 105.8221613,21.0261461 ]
    },
    "properties": {
    "Address":"Tòa nhà D2 Giảng Võ, Quận Ba Đình, Hà Nội",
    "name": "Gong Cha Giảng Võ"
    }
  },
  {
    "type": "Feature",
    "geometry": {
       "type": "Point",
       "coordinates":  [ 105.872864,21.044474 ]
    },
    "properties": {
    "Address":"187 Nguyễn Văn Cừ, Phường Ngọc Lâm, Quận Long Biên, Hà Nội",
    "name": "Gong Cha Nguyễn Văn Cừ - Long Biên"
    }
  },
  {
    "type": "Feature",
    "geometry": {
       "type": "Point",
       "coordinates":  [ 105.869502,20.992169 ]
    },
    "properties": {
    "Address":"Park 3 – Park Hill, Khu đô thị Times City, P.Mai Động, Q.Hoàng Mai, Hà Nội",
    "name": "Gong Cha Times City"
    }
  },
  {
    "type": "Feature",
    "geometry": {
       "type": "Point",
       "coordinates":  [ 105.847136,21.038703 ]
    },
    "properties": {
    "Address":"3 Hàng Cót, P.Hàng Mã, Q.Hoàn Kiếm, Hà Nội ",
    "name": "Gong Cha Hàng Cót"
    }
  },
  {
    "type": "Feature",
    "geometry": {
       "type": "Point",
       "coordinates":  [ 105.8008751,21.007211 ]
    },
    "properties": {
    "Address":"Lô T1.5, Tầng 1 Tòa nhà 34T, khu đô thị mới Trung Hòa, Nhân Chính, đường Hoàng Đạo Thúy, phường Trung Hòa, quận Cầu Giấy, Hà Nội",
    "name": "Gong Cha Hoàng Đạo Thúy"
    }
  },
  {
    "type": "Feature",
    "geometry": {
       "type": "Point",
       "coordinates":  [ 105.850356,21.010551 ]
    },
    "properties": {
    "Address":"19 Thái Phiên, Lê Đại Hành, Hà Nội, Vietnam",
    "name": "Royal Tea Thái Phiên"
    }
  },
  {
    "type": "Feature",
    "geometry": {
       "type": "Point",
       "coordinates":  [ 105.848969,21.02309 ]
    },
    "properties": {
    "Address":"16 Quang Trung, Trần Hưng Đạo, Hà Nội, Vietnam",
    "name": "Royal Tea Quang Trung"
    }
  },
  {
    "type": "Feature",
    "geometry": {
       "type": "Point",
       "coordinates":  [ 105.8534968,21.019864 ]
    },
    "properties": {
    "Address":"18 Ngô Quyền ,Hoàn Kiếm, Hà Nội, Vietnam",
    "name": "Royal Tea Ngô Quyền"
    }
  },
  {
    "type": "Feature",
    "geometry": {
       "type": "Point",
       "coordinates":  [ 105.834775,21.008937 ]
    },
    "properties": {
    "Address":"19B10 Phạm Ngọc Thạch, Đống Đa,  Hà Nội",
    "name": "Royal   Tea Phạm Ngọc Thạch"
    }
  },
  {
    "type": "Feature",
    "geometry": {
       "type": "Point",
       "coordinates":  [ 105.846892,21.039613 ]
    },
    "properties": {
    "Address":"1 Phan Đình Phùng, Hàng Mã, Hà Nội, Vietnam",
    "name": "Royal Tea Phan Đình Phùng"
    }
  },
  {
    "type": "Feature",
    "geometry": {
       "type": "Point",
       "coordinates":  [ 105.7856378,20.9790077 ]
    },
    "properties": {
    "Address":"Toà nhà Hồ Gươm Plaza, 110 Trần Phú, P. Mỗ Lao, Q. Hà Đông",
    "name": "Royal Tea Cơ Sở Trần Phú – Hà Đông"
    }
  },
  {
    "type": "Feature",
    "geometry": {
       "type": "Point",
       "coordinates":  [ 105.776288,20.975778 ]
    },
    "properties": {
    "Address":"8 Ngô Quyền , Hoàn Kiếm , Hà Nội",
    "name": "Royal Tea Ngô Quyền"
    }
  },
  {
    "type": "Feature",
    "geometry": {
       "type": "Point",
       "coordinates":  [ 105.8046538,21.0287821 ]
    },
    "properties": {
    "Address":"188 Cầu Giấy, Ngọc Khánh, Hà Nội, Vietnam",
    "name": "Royal Tea Cầu Giấy"
    }
  },
  {
    "type": "Feature",
    "geometry": {
       "type": "Point",
       "coordinates":  [ 105.8255329,21.028165 ]
    },
    "properties": {
    "Address":"165 Giảng Võ, Chợ Dừa, Hà Nội, Vietnam",
    "name": "Royal Tea Giảng Võ"
    }
  },
  {
    "type": "Feature",
    "geometry": {
       "type": "Point",
       "coordinates":  [ 105.842557,21.027914 ]
    },
    "properties": {
    "Address":"2 Cửa Nam, Hoàn Kiếm, Hà Nội",
    "name": "Royal Tea Cửa Nam"
    }
  },
  {
    "type": "Feature",
    "geometry": {
       "type": "Point",
       "coordinates":  [ 105.792437,21.038839 ]
    },
    "properties": {
    "Address":"64 Trần Đăng Ninh, Hà Nội",
    "name": "Royal Tea Trần Đăng Ninh"
    }
  },
  {
    "type": "Feature",
    "geometry": {
       "type": "Point",
       "coordinates":  [ 105.8069971,21.0330909 ]
    },
    "properties": {
    "Address":"76 Đào Tấn, Cống Vị, Quận Ba Đình, Hà Nội",
    "name": "Royal Tea Đào Tấn"
    }
  },
  {
    "type": "Feature",
    "geometry": {
       "type": "Point",
       "coordinates":  [ 105.7856378,20.9790077 ]
    },
    "properties": {
    "Address":"Tầng 1 TTTM Hồ Gươm Plaza, 110 Trần Phú, Mỗ Lao, Hà Đông, Hà Nội, Quận Hà Đông, Hà Nội",
    "name": "Royal Tea Trần Phú"
    }
  },
  {
    "type": "Feature",
    "geometry": {
       "type": "Point",
       "coordinates":  [ 105.849208,21.036057 ]
    },
    "properties": {
    "Address":"5 Hàng Cá, Hà Nội",
    "name": "Royal Tea Hàng Cá"
    }
  },
  {
    "type": "Feature",
    "geometry": {
       "type": "Point",
       "coordinates":  [ 105.855039,21.02472 ]
    },
    "properties": {
    "Address":"18 Ngô Quyền, Tràng Tiền, Quận Hoàn Kiếm, Hà Nội",
    "name": "Royal Tea Ngô Quyền"
    }
  },
  {
    "type": "Feature",
    "geometry": {
       "type": "Point",
       "coordinates":  [ 105.800142,21.019441 ]
    },
    "properties": {
    "Address":"142 Vũ Phạm Hàm, Yên Hoà, Quận Cầu Giấy, Hà Nội",
    "name": "Royal Tea Vũ Phạm Hàm"
    }
  },
  {
    "type": "Feature",
    "geometry": {
       "type": "Point",
       "coordinates":  [ 105.8001202,21.0112772 ]
    },
    "properties": {
    "Address":"105 Trần Duy Hưng, Hà Nội",
    "name": "Royal Tea Trần Duy Hưng"
    }
  },
  {
    "type": "Feature",
    "geometry": {
       "type": "Point",
       "coordinates":  [ 105.797487,20.987148 ]
    },
    "properties": {
    "Address":"515 Nguyễn Trãi, Thanh Xuân Nam, Quận Thanh Xuân, Hà Nội",
    "name": "Royal Tea Nguyễn Trãi"
    }
  },
  {
    "type": "Feature",
    "geometry": {
       "type": "Point",
       "coordinates":  [ 105.853030,21.024045 ]
    },
    "properties": {
    "Address":"23 Lê Đại Hành, Hai Bà Trưng",
    "name": "Dingtea Cơ sở 1"
    }
  },
  {
    "type": "Feature",
    "geometry": {
       "type": "Point",
       "coordinates":  [ 105.825554,21.028183 ]
    },
    "properties": {
    "Address":"163 Giảng Võ, Đống Đa",
    "name": "Dingtea Cơ sở 2"
    }
  },
  {
    "type": "Feature",
    "geometry": {
       "type": "Point",
       "coordinates":  [ 105.847202,21.037158 ]
    },
    "properties": {
    "Address":"47 Hàng Cót, Hoàn Kiếm",
    "name": "Dingtea Cơ sở 3"
    }
  },
  {
    "type": "Feature",
    "geometry": {
       "type": "Point",
       "coordinates":  [ 105.797715,21.033702 ]
    },
    "properties": {
    "Address":"180 Cầu Giấy, Cầu Giấy",
    "name": "Dingtea Cơ sở 4"
    }
  },
  {
    "type": "Feature",
    "geometry": {
       "type": "Point",
       "coordinates":  [ 105.800354,21.011543 ]
    },
    "properties": {
    "Address":"102 Trần Duy Hưng, Cầu Giấy",
    "name": "Dingtea Cơ sở 5"
    }
  },
  {
    "type": "Feature",
    "geometry": {
       "type": "Point",
       "coordinates":  [ 105.854482,21.035044 ]
    },
    "properties": {
    "Address":"1B Nguyễn Hữu Huân, Hoàn Kiếm",
    "name": "Dingtea Cơ sở 6"
    }
  },
  {
    "type": "Feature",
    "geometry": {
       "type": "Point",
       "coordinates":  [ 105.822993,21.01005 ]
    },
    "properties": {
    "Address":"26 Thái Hà, Đống Đa",
    "name": "Dingtea Cơ sở 7"
    }
  },
  {
    "type": "Feature",
    "geometry": {
       "type": "Point",
       "coordinates":  [ 105.8060148,21.0337572 ]
    },
    "properties": {
    "Address":"15A Đào Tấn, Ba Đình",
    "name": "Dingtea Cơ sở 8"
    }
  },
  {
    "type": "Feature",
    "geometry": {
       "type": "Point",
       "coordinates":  [ 105.810742,20.996559 ]
    },
    "properties": {
    "Address":"306 Nguyễn Trãi, Thanh Xuân",
    "name": "Dingtea Cơ sở 9"
    }
  },
  {
    "type": "Feature",
    "geometry": {
       "type": "Point",
       "coordinates":  [ 105.780934,20.974954 ]
    },
    "properties": {
    "Address":"12 Trần Phú, Hà Đông",
    "name": "Dingtea Cơ sở 11"
    }
  },
  {
    "type": "Feature",
    "geometry": {
       "type": "Point",
       "coordinates":  [ 105.836544,21.010427 ]
    },
    "properties": {
    "Address":"8B4 Kim Liên, Phạm Ngọc Thạch, Đống Đa",
    "name": "Dingtea Cơ sở 12"
    }
  },
  {
    "type": "Feature",
    "geometry": {
       "type": "Point",
       "coordinates":  [ 105.873957,21.044690 ]
    },
    "properties": {
    "Address":"266 Nguyễn Văn Cừ, Long Biên",
    "name": "Dingtea Cơ sở 13"
    }
  },
  {
    "type": "Feature",
    "geometry": {
       "type": "Point",
       "coordinates":  [ 105.766025,21.040606 ]
    },
    "properties": {
    "Address":"114 Hồ Tùng Mậu, Cầu Giấy",
    "name": "Dingtea Cơ sở 14"
    }
  },
  {
    "type": "Feature",
    "geometry": {
       "type": "Point",
       "coordinates":  [ 105.8459419,21.1411997 ]
    },
    "properties": {
    "Address":"28A Cao Lỗ, Đông Anh",
    "name": "Dingtea Cơ sở 15"
    }
  },
  {
    "type": "Feature",
    "geometry": {
       "type": "Point",
       "coordinates":  [ 105.7929755,21.0070884 ]
    },
    "properties": {
    "Address":"Tầng 1 - Big C - Trần Duy Hưng",
    "name": "Dingtea Cơ sở 16"
    }
  },
  {
    "type": "Feature",
    "geometry": {
       "type": "Point",
       "coordinates":  [ 105.846413,20.983479 ]
    },
    "properties": {
    "Address":"20 Tân Mai, Hoàng Mai",
    "name": "Dingtea Cơ sở 17"
    }
  },
  {
    "type": "Feature",
    "geometry": {
       "type": "Point",
       "coordinates":  [ 105.7785522,20.9708476 ]
    },
    "properties": {
    "Address":"28 Trưng Nhị - Hà Đông",
    "name": "Dingtea Cơ sở 18"
    }
  },
  {
    "type": "Feature",
    "geometry": {
       "type": "Point",
       "coordinates":  [ 105.847098,21.017223 ]
    },
    "properties": {
    "Address":"69 Quang Trung, Hà Nội",
    "name": "Dingtea Cơ sở 19"
    }
  },
  {
    "type": "Feature",
    "geometry": {
       "type": "Point",
       "coordinates":  [ 105.8063029,21.0229818 ]
    },
    "properties": {
    "Address":"109A Thụy Khuê - Tây Hồ",
    "name": "Dingtea Cơ sở 20"
    }
  },
  {
    "type": "Feature",
    "geometry": {
       "type": "Point",
       "coordinates":  [ 105.824603,21.0349049 ]
    },
    "properties": {
    "Address":"72 Chùa Láng - Đống Đa",
    "name":  "Dingtea Cơ sở 21"
    }
  },
  {
    "type": "Feature",
    "geometry": {
       "type": "Point",
       "coordinates":  [ 105.824603,21.0349049 ]
    },
    "properties": {
    "Address":"164C Đội Cấn",
    "name":  "Dingtea Cơ sở 22"
    }
  },
  {
    "type": "Feature",
    "geometry": {
       "type": "Point",
       "coordinates":  [ 105.7950419,21.011805 ]
    },
    "properties": {
    "Address":"100 Trung Kính",
    "name":  "Dingtea Cơ sở 23"
    }
  },
  {
    "type": "Feature",
    "geometry": {
       "type": "Point",
       "coordinates":  [ 105.7749158,21.0741981 ]
    },
    "properties": {
    "Address":"18 Lê Văn Hiến - Cổ Nhuế",
    "name":  "Dingtea Cơ sở 24"
    }
  },
  {
    "type": "Feature",
    "geometry": {
       "type": "Point",
       "coordinates":  [ 105.8912971,21.0508358 ]
    },
    "properties": {
    "Address":"Tầng 1 - Big C Long Biên",
    "name":  "Dingtea Cơ sở 25"
    }
  },
  {
    "type": "Feature",
    "geometry": {
       "type": "Point",
       "coordinates":  [ 105.8969159,21.027394 ]
    },
    "properties": {
    "Address":"T103-1 TTTM Aeon Mall, Long Biên",
    "name":  "Dingtea Cơ sở 26"
    }
  },
  {
    "type": "Feature",
    "geometry": {
       "type": "Point",
       "coordinates":  [ 105.7856378,20.9790077 ]
    },
    "properties": {
    "Address":"Tầng 3,TTTM Hồ Gươm Plaza, Hà Đông",
    "name":  "Dingtea Cơ sở 27"
    }
  },
  {
    "type": "Feature",
    "geometry": {
       "type": "Point",
       "coordinates":  [ 105.7914834,21.0416351 ]
    },
    "properties": {
    "Address":"273 Tô Hiệu, Cầu Giấy",
    "name":  "Dingtea Cơ sở 28"
    }
  },
  {
    "type": "Feature",
    "geometry": {
       "type": "Point",
       "coordinates":  [ 105.902732,21.070986 ]
    },
    "properties": {
    "Address":"841 Ngô Gia Tự, Long Biên",
    "name":  "Dingtea Cơ sở 29"
    }
  },
  {
    "type": "Feature",
    "geometry": {
       "type": "Point",
       "coordinates":  [ 105.830065,20.9696874 ]
    },
    "properties": {
    "Address":"1A-M3 TT6 Bắc Linh Đàm, Hà Nội",
    "name":  "Dingtea Cơ sở 30"
    }
  },
  {
    "type": "Feature",
    "geometry": {
       "type": "Point",
       "coordinates":  [ 105.8283268,21.0193985 ]
    },
    "properties": {
    "Address":"82-84 Ô Chợ Dừa, Đống Đa, Hà Nội",
    "name": "Dingtea Cơ sở 31"
    }
  },
  {
    "type": "Feature",
    "geometry": {
       "type": "Point",
       "coordinates":  [ 105.7831409,21.0095242 ]
    },
    "properties": {
    "Address":"Số 2 Nguyễn Xiển, Hà Nội",
    "name": "Dingtea Cơ sở 31"
    }
  },
  {
    "type": "Feature",
    "geometry": {
       "type": "Point",
       "coordinates":  [ 105.849682,21.028687 ]
    },
    "properties": {
    "Address":"Số 1 Nhà Chung, Hà Nội",
    "name": "Dingtea Cơ sở 32"
    }
  },
  {
    "type": "Feature",
    "geometry": {
       "type": "Point",
       "coordinates":  [ 105.84732,21.041776 ]
    },
    "properties": {
    "Address":"27 Hàng Than, Ha Nội",
    "name": "Dingtea Cơ sở 33"
    }
  },
  {
    "type": "Feature",
    "geometry": {
       "type": "Point",
       "coordinates":  [ 105.869423,20.995122 ]
    },
    "properties": {
    "Address":"Đ1-20 tầng B1T4 TTTM Times City, Hà Nội",
    "name": "Dingtea Cơ sở 34"
    }
  },
  {
    "type": "Feature",
    "geometry": {
       "type": "Point",
       "coordinates":  [ 105.813696,21.0029896 ]
    },
    "properties": {
    "Address":"B2-R4-10B TTTM Royal City, Hà Nội",
    "name": "Dingtea Cơ sở 35"
    }
  },
  {
    "type": "Feature",
    "geometry": {
       "type": "Point",
       "coordinates":  [ 105.8528613,21.0239658 ]
    },
    "properties": {
    "Address":"23E Hai Ba Trưng, Hà Nội",
    "name": "Dingtea Cơ sở 36"
    }
  },
  {
    "type": "Feature",
    "geometry": {
       "type": "Point",
       "coordinates":  [ 105.8430987,21.0011839 ]
    },
    "properties": {
    "Address":"157 Trần Đại Nghĩa, Hà Nội",
    "name": "Dingtea Cơ sở 37"
    }
  },
  {
    "type": "Feature",
    "geometry": {
       "type": "Point",
       "coordinates":  [ 105.8395299,21.030043 ]
    },
    "properties": {
    "Address":"22 Điện Biên Phủ, Hà Nội",
    "name": "Dingtea Cơ sở 38"
    }
  },
  {
    "type": "Feature",
    "geometry": {
       "type": "Point",
       "coordinates":  [ 105.8139022,20.9821702 ]
    },
    "properties": {
    "Address":"100 Kim Giang, Hà Nội",
    "name": "Dingtea Cơ sở 39"
    }
  },
  {
    "type": "Feature",
    "geometry": {
       "type": "Point",
       "coordinates":  [ 105.7616039,21.03685 ]
    },
    "properties": {
    "Address":"103 Cầu Diễn, Hà Nội",
    "name": "Dingtea Cơ sở 40"
    }
  },
  {
    "type": "Feature",
    "geometry": {
       "type": "Point",
       "coordinates":  [ 105.799671,21.027797 ]
    },
    "properties": {
    "Address":"1194 Đường Láng, Hà Nội",
    "name": "Dingtea Cơ sở 41"
    }
  },
  {
    "type": "Feature",
    "geometry": {
       "type": "Point",
       "coordinates":  [ 105.832689,21.019333 ]
    },
    "properties": {
    "Address":"241 Khâm Thiên, Hà Nội",
    "name": "Dingtea Cơ sở 42"
    }
  },
  {
    "type": "Feature",
    "geometry": {
       "type": "Point",
       "coordinates":  [ 105.8711099,21.047954 ]
    },
    "properties": {
    "Address":"355 Ngọc Lâm, Hà Nội",
    "name": "Dingtea Cơ sở 43"
    }
  },
  {
    "type": "Feature",
    "geometry": {
       "type": "Point",
       "coordinates":  [ 105.8180141,21.0213789 ]
    },
    "properties": {
    "Address":"50 Láng Hạ, Hà Nội",
    "name": "Dingtea Cơ sở 44"
    }
  },
  {
    "type": "Feature",
    "geometry": {
       "type": "Point",
       "coordinates":  [ 105.7851209,21.036376 ]
    },
    "properties": {
    "Address":"169 Xuân Thủy, Hà Nội",
    "name": "Dingtea Cơ sở 45"
    }
  },
  {
    "type": "Feature",
    "geometry": {
       "type": "Point",
       "coordinates":  [ 105.8081149,21.0187009 ]
    },
    "properties": {
    "Address":"47 Huỳnh Thúc Kháng, Hà Nội",
    "name": "Dingtea Cơ sở 46"
    }
  },
  {
    "type": "Feature",
    "geometry": {
       "type": "Point",
       "coordinates":  [ 105.830065,20.9696874 ]
    },
    "properties": {
    "Address":"HH1A Bán đảo Linh Đàm, Hà Nội",
    "name": "Dingtea Cơ sở 47"
    }
  },
  {
    "type": "Feature",
    "geometry": {
       "type": "Point",
       "coordinates":  [ 105.860625,21.009338 ]
    },
    "properties": {
    "Address":"252 Trần Khát Chân, Hà Nội",
    "name": "Dingtea Cơ sở 48"
    }
  },
  {
    "type": "Feature",
    "geometry": {
       "type": "Point",
       "coordinates":  [ 105.864721,21.003131 ]
    },
    "properties": {
    "Address":"439 Hoàng Quốc Việt, Hà Nội",
    "name": "Dingtea Cơ sở 49"
    }
  },
  {
    "type": "Feature",
    "geometry": {
       "type": "Point",
       "coordinates":  [ 105.864721,21.003131 ]
    },
    "properties": {
    "Address":"156 Lạc Trung, Hà Nội",
    "name": "Dingtea Cơ sở 50"
    }
  },
  {
    "type": "Feature",
    "geometry": {
       "type": "Point",
       "coordinates":  [ 105.825653,21.030554 ]
    },
    "properties": {
    "Address":"46 Kim Mã, Hà Nội",
    "name": "Dingtea Cơ sở 51"
    }
  },
  {
    "type": "Feature",
    "geometry": {
       "type": "Point",
       "coordinates":  [ 105.8038609,21.047911 ]
    },
    "properties": {
    "Address":"59 Lạc Long Quân, Hà Nội",
    "name": "Dingtea Cơ sở 52"
    }
  },
  {
    "type": "Feature",
    "geometry": {
       "type": "Point",
       "coordinates":  [ 105.7715575,20.9691017 ]
    },
    "properties": {
    "Address":"185 Quang Trung, Hà Đông, Hà Nội",
    "name": "Dingtea Cơ sở 53"
    }
  },
  {
    "type": "Feature",
    "geometry": {
       "type": "Point",
       "coordinates":  [ 105.8337399,21.003716 ]
    },
    "properties": {
    "Address":"150 Lương Định Của, Hà Nội",
    "name": "Dingtea Cơ sở 54"
    }
  },
  {
    "type": "Feature",
    "geometry": {
       "type": "Point",
       "coordinates":  [ 105.8306142,21.0110752 ]
    },
    "properties": {
    "Address":"1C Hồ Đắc Di, Hà Nội",
    "name": "Dingtea Cơ sở 55"
    }
  },
  {
    "type": "Feature",
    "geometry": {
       "type": "Point",
       "coordinates":  [ 105.9348551,21.0104809 ]
    },
    "properties": {
    "Address":"279 Ngô Xuân Quảng, Hà Nội",
    "name": "Dingtea Cơ sở 56"
    }
  },
  {
    "type": "Feature",
    "geometry": {
       "type": "Point",
       "coordinates":  [ 105.7681497,21.0349313 ]
    },
    "properties": {
    "Address":"Sun Square 21 Lê Đức Thọ, Hà Nội",
    "name": "Dingtea Cơ sở 57"
    }
  },
  {
    "type": "Feature",
    "geometry": {
       "type": "Point",
       "coordinates":  [ 105.7756279,21.0152501 ]
    },
    "properties": {
    "Address":"TTTM The Garden Mễ Trì, Hà Nội",
    "name": "Dingtea Cơ sở 58"
    }
  },
  {
    "type": "Feature",
    "geometry": {
       "type": "Point",
       "coordinates":  [ 105.818548,21.0017989 ]
    },
    "properties": {
    "Address":"81 Nguyễn Trãi, Hà Nội",
    "name": "Dingtea Cơ sở 59"
    }
  },
  {
    "type": "Feature",
    "geometry": {
       "type": "Point",
       "coordinates":  [ 105.921011,20.9737963 ]
    },
    "properties": {
    "Address":"18 Phố Trúc, Ecopark",
    "name": "Dingtea Cơ sở 60"
    }
  },
  {
    "type": "Feature",
    "geometry": {
       "type": "Point",
       "coordinates":  [ 105.850634,21.000809 ]
    },
    "properties": {
    "Address":"425 Bạch Mai, Hà Nội",
    "name": "Dingtea Cơ sở 61"
    }
  },
  {
    "type": "Feature",
    "geometry": {
       "type": "Point",
       "coordinates":  [ 105.8556686,20.9857921 ]
    },
    "properties": {
    "Address":"69 Lô 7, Đền Lừ 2, Hà Nội",
    "name": "Dingtea Cơ sở 62"
    }
  },
  {
    "type": "Feature",
    "geometry": {
       "type": "Point",
       "coordinates":  [ 105.8056459,21.0073835 ]
    },
    "properties": {
    "Address":"42 Nguyễn Thị Định, Hà Nội",
    "name": "Dingtea Cơ sở 63"
    }
  },
  {
    "type": "Feature",
    "geometry": {
       "type": "Point",
       "coordinates":  [ 105.8283724,20.999841 ]
    },
    "properties": {
    "Address":"BigC số 3 Lê Trọng Tấn, Hà Nội",
    "name": "Dingtea Cơ sở 64"
    }
  },
  {
    "type": "Feature",
    "geometry": {
       "type": "Point",
       "coordinates":  [ 105.852535,21.0061027  ]
    },
    "properties": {
    "Address":"58 Võ Thị Sáu, Hà Nội",
    "name": "Dingtea Cơ sở 65"
    }
  },
  {
    "type": "Feature",
    "geometry": {
       "type": "Point",
       "coordinates":  [ 105.8058303,21.0666128 ]
    },
    "properties": {
    "Address":"28A Xuân La, Hà Nội",
    "name": "Dingtea Cơ sở 66"
    }
  },
  {
    "type": "Feature",
    "geometry": {
       "type": "Point",
       "coordinates":  [ 105.7299918,21.0562925 ]
    },
    "properties": {
    "Address":"105 Phố Nhổn, Hà Nội",
    "name": "Dingtea Cơ sở 67"
    }
  },
  {
    "type": "Feature",
    "geometry": {
       "type": "Point",
       "coordinates":  [ 105.8220947,21.027451 ]
    },
    "properties": {
    "Address":"125 Trần Huy Liệu, Hà Nội",
    "name": "Dingtea Cơ sở 68"
    }
  },
  {
    "type": "Feature",
    "geometry": {
       "type": "Point",
       "coordinates":  [ 105.8312269,20.9861967 ]
    },
    "properties": {
    "Address":"32 Trần Nguyên Đán, Định Công, Hà Nội",
    "name": "Dingtea Cơ sở 69"
    }
  },
  {
    "type": "Feature",
    "geometry": {
       "type": "Point",
       "coordinates":  [ 105.801655,21.01875 ]
    },
    "properties": {
    "Address":"85 Nguyễn Khang, Hà Nội",
    "name": "Dingtea Cơ sở 70"
    }
  },
  {
    "type": "Feature",
    "geometry": {
       "type": "Point",
       "coordinates":  [ 105.8070074,20.9569987 ]
    },
    "properties": {
    "Address":"CT8B Khu đô thị Đại Thanh, Hà Nội",
    "name": "Dingtea Cơ sở 71"
    }
  },
  {
    "type": "Feature",
    "geometry": {
       "type": "Point",
       "coordinates":  [ 105.8625471,20.8694736 ]
    },
    "properties": {
    "Address":"47B Trần Phú, Thường Tín, Hà Nội",
    "name": "Dingtea Cơ sở 72"
    }
  },
  {
    "type": "Feature",
    "geometry": {
       "type": "Point",
       "coordinates":  [ 105.7641405,21.0650499 ]
    },
    "properties": {
    "Address":"Học viện cảnh sát, Bắc Từ Liêm, Hà Nội",
    "name": "Dingtea Cơ sở 73"
    }
  },
  {
    "type": "Feature",
    "geometry": {
       "type": "Point",
       "coordinates":  [ 105.5022403,21.1368848 ]
    },
    "properties": {
    "Address":"13 Nguyễn Thái Học, Sơn Tây, Hà Nội",
    "name": "Dingtea Cơ sở 74"
    }
  },
  {
    "type": "Feature",
    "geometry": {
       "type": "Point",
       "coordinates":  [ 105.771517,20.9838776 ]
    },
    "properties": {
    "Address":"Số 3A2 Shop House Vạn Phúc, Tố Hữu, Hà Nội",
    "name": "Dingtea Cơ sở 75"
    }
  },
  {
    "type": "Feature",
    "geometry": {
       "type": "Point",
       "coordinates":  [ 105.8012585,20.9974259 ]
    },
    "properties": {
    "Address":"A6-A7, Tầng 1 Tòa A TTTM Imperia Garden, Hà Nội",
    "name": "Dingtea Cơ sở 76"
    }
  },
  {
    "type": "Feature",
    "geometry": {
       "type": "Point",
       "coordinates":  [ 105.8263479,21.0200773 ]
    },
    "properties": {
    "Address":"166 phố Ô Chợ Dừa, phường Ô Chợ Dừa, quận Đống Đa, Hanoi",
    "name": "Bobapop - Taiwan Lattea"
    }
  },
  {
    "type": "Feature",
    "geometry": {
       "type": "Point",
       "coordinates":  [ 105.8667444,21.0029914 ]
    },
    "properties": {
    "Address":"232 Lạc Trung - Hai Bà Trưng, Hanoi, Vietnam",
    "name": "Bobapop - Taiwan Lattea"
    }
  },
  {
    "type": "Feature",
    "geometry": {
       "type": "Point",
       "coordinates":  [ 105.8177087,21.0151471 ]
    },
    "properties": {
    "Address":"290 Thái Hà, Hanoi, Vietnam",
    "name": "Bobapop - Taiwan Lattea"
    }
  },
  {
    "type": "Feature",
    "geometry": {
       "type": "Point",
       "coordinates":  [ 105.856491,21.029028 ]
    },
    "properties": {
    "Address":"Số 7 Trần Nguyên Hãn , Hoàn Kiếm, Hanoi, Vietnam",
    "name": "Bobapop - Taiwan Lattea"
    }
  },
  {
    "type": "Feature",
    "geometry": {
       "type": "Point",
       "coordinates":  [ 105.7907172,21.0394112 ]
    },
    "properties": {
    "Address":"56 Nguyễn Phong Sắc, Hanoi, Vietnam",
    "name": "Bobapop - Taiwan Lattea"
    }
  },
  {
    "type": "Feature",
    "geometry": {
       "type": "Point",
       "coordinates":  [ 105.7933862,20.9844003 ]
    },
    "properties": {
    "Address":"50 Trần Phú, Hà Đông, Hanoi, Vietnam",
    "name": "Bobapop - Taiwan Lattea"
    }
  },
  {
    "type": "Feature",
    "geometry": {
       "type": "Point",
       "coordinates":  [ 105.8464158,20.9837433 ]
    },
    "properties": {
    "Address":"120 Tân Mai, Phường Tân Mai, Quận Hoàng Mai, Hanoi",
    "name": "Bobapop - Taiwan Lattea"
    }
  },
  {
    "type": "Feature",
    "geometry": {
       "type": "Point",
       "coordinates":  [ 105.8504775,21.0092622 ]
    },
    "properties": {
    "Address":"7 Lê Đại Hành, Hai Bà Trưng, Hanoi, Vietnam",
    "name": "Bobapop - Taiwan Lattea"
    }
  },
  {
    "type": "Feature",
    "geometry": {
       "type": "Point",
       "coordinates":  [ 105.808883,21.022892 ]
    },
    "properties": {
    "Address":"10 Chùa Láng, Hanoi, Vietnam",
    "name": "Bobapop - Taiwan Lattea"
    }
  },
  {
    "type": "Feature",
    "geometry": {
       "type": "Point",
       "coordinates":  [ 105.7991454,21.0196218 ]
    },
    "properties": {
    "Address":"18 đường Nguyễn Khang, phường Yên Hòa, Quận Cầu Giấy, Hà Nội",
    "name": "Bobapop - Taiwan Lattea"
    }
  },
  {
    "type": "Feature",
    "geometry": {
       "type": "Point",
       "coordinates":  [ 105.8513956,21.0158244 ]
    },
    "properties": {
    "Address":"132 Phố Huế, Hanoi, Vietnam",
    "name": "Bobapop - Taiwan Lattea"
    }
  },
  {
    "type": "Feature",
    "geometry": {
       "type": "Point",
       "coordinates":  [ 105.89911,21.027389 ]
    },
    "properties": {
    "Address":"Tầng 3, Aeon Long Biên,Hanoi, Vietnam",
    "name": "Bobapop - Taiwan Lattea"
    }
  },
  {
    "type": "Feature",
    "geometry": {
       "type": "Point",
       "coordinates":  [ 105.8019329  ,20.9906761 ]
    },
    "properties": {
    "Address":"18 Nguyễn Xiển, Thanh Xuân, Hanoi, Vietnam",
    "name": "Bobapop - Taiwan Lattea"
    }
  },
  {
    "type": "Feature",
    "geometry": {
       "type": "Point",
       "coordinates":  [ 105.772479,21.038415 ]
    },
    "properties": {
    "Address":"Số 6 Hồ Tùng Mậu,Mai Dịch, Cầu Giấy, Mai Dich, Ha Noi, Vietnam",
    "name": "Bobapop - Taiwan Lattea"
    }
  },
  {
    "type": "Feature",
    "geometry": {
       "type": "Point",
       "coordinates":  [ 105.8059226,21.0337086 ]
    },
    "properties": {
    "Address":"103 Đào Tấn, Ngọc Khánh, Ba Đình, Hà Nội, Vietnam",
    "name": "Bobapop - Taiwan Lattea"
    }
  },
  {
    "type": "Feature",
    "geometry": {
       "type": "Point",
       "coordinates":  [ 105.8358153,21.0099241 ]
    },
    "properties": {
    "Address":"5B7 Phạm Ngọc Thạch, Hanoi, Vietnam",
    "name": "Bobapop - Taiwan Lattea"
    }
  },
  {
    "type": "Feature",
    "geometry": {
       "type": "Point",
       "coordinates":  [ 105.8133579,20.9979109 ]
    },
    "properties": {
    "Address":"Số 8 Thượng Đình,Khương Đình,Thanh Xuân, Hanoi, Vietnam",
    "name": "Bobapop - Taiwan Lattea"
    }
  },
  {
    "type": "Feature",
    "geometry": {
       "type": "Point",
       "coordinates":  [ 105.8170653,21.0135176 ]
    },
    "properties": {
    "Address":"188 Thái Hà - Đống Đa - Hà Nội",
    "name": "TocoToco"
    }
  },
  {
    "type": "Feature",
    "geometry": {
       "type": "Point",
       "coordinates":  [ 105.8401629,21.041506 ]
    },
    "properties": {
    "Address":"92 Cửa Bắc, Ba Đình, Hà Nội",
    "name": "TocoToco"
    }
  },
  {
    "type": "Feature",
    "geometry": {
       "type": "Point",
       "coordinates":  [ 105.7646084,21.0589985 ]
    },
    "properties": {
    "Address":"118 Phú Diễn, Q.Bắc Từ Liêm, Hà Nội",
    "name": "TocoToco"
    }
  },
  {
    "type": "Feature",
    "geometry": {
       "type": "Point",
       "coordinates":  [ 105.7154776,21.0649892 ]
    },
    "properties": {
    "Address":"Lai Xá, Hoài Đức, Hà Nội",
    "name": "TocoToco"
    }
  },
  {
    "type": "Feature",
    "geometry": {
       "type": "Point",
       "coordinates":  [ 105.7983269,21.029677 ]
    },
    "properties": {
    "Address":"28B Nguyễn Khang,Cầu Giấy,HN",
    "name": "TocoToco"
    }
  },
  {
    "type": "Feature",
    "geometry": {
       "type": "Point",
       "coordinates":  [ 105.8452963,21.0011521 ]
    },
    "properties": {
    "Address":"66 Trần Đại Nghĩa, HBT, Hà Nội",
    "name": "TocoToco"
    }
  },
  {
    "type": "Feature",
    "geometry": {
       "type": "Point",
       "coordinates":  [ 105.7385336,21.0865201 ]
    },
    "properties": {
    "Address":"20 Nhổn,P.Tây Tựu, Bắc Từ Liêm",
    "name": "TocoToco"
    }
  },
  {
    "type": "Feature",
    "geometry": {
       "type": "Point",
       "coordinates":  [ 105.7920599,21.041553 ]
    },
    "properties": {
    "Address":"175 Tô Hiệu,Dịch Vọng, Cầu Giấy",
    "name": "TocoToco"
    }
  },
  {
    "type": "Feature",
    "geometry": {
       "type": "Point",
       "coordinates":  [ 105.817409,21.030552 ]
    },
    "properties": {
    "Address":"331 Kim Mã, Ba Đình, Hà Nội",
    "name": "TocoToco"
    }
  },
  {
    "type": "Feature",
    "geometry": {
       "type": "Point",
       "coordinates":  [ 105.8482024,20.9973077 ]
    },
    "properties": {
    "Address":"459 Bạch Mai, HBT, Hà Nội",
    "name": "TocoToco"
    }
  },
  {
    "type": "Feature",
    "geometry": {
       "type": "Point",
       "coordinates":  [ 105.7893303,20.9823988 ]
    },
    "properties": {
    "Address":"15 Nguyễn Văn Lộc, Hà Đông",
    "name": "TocoToco"
    }
  },
  {
    "type": "Feature",
    "geometry": {
       "type": "Point",
       "coordinates":  [ 105.6731923,21.0830194 ]
    },
    "properties": {
    "Address":"115 Tây Sơn, Đan Phượng, Hà Nội",
    "name": "TocoToco"
    }
  },
  {
    "type": "Feature",
    "geometry": {
       "type": "Point",
       "coordinates":  [ 105.8686635,21.0448412 ]
    },
    "properties": {
    "Address":"Ngọc Lâm, Long Biên, Hà Nội",
    "name": "TocoToco"
    }
  },
  {
    "type": "Feature",
    "geometry": {
       "type": "Point",
       "coordinates":  [ 105.869116,20.9950183 ]
    },
    "properties": {
    "Address":"K4 - Đường Thanh Niên, Time City",
    "name": "TocoToco"
    }
  },
  {
    "type": "Feature",
    "geometry": {
       "type": "Point",
       "coordinates":  [ 105.8532018,20.921112 ]
    },
    "properties": {
    "Address":"Km 13, Quốc lộ 1A cũ, Ngọc Hồi, Thanh Trì",
    "name": "TocoToco"
    }
  },
  {
    "type": "Feature",
    "geometry": {
       "type": "Point",
       "coordinates":  [ 105.8083267,21.0322088 ]
    },
    "properties": {
    "Address":"11A Đào Tấn",
    "name": "TocoToco"
    }
  },
  {
    "type": "Feature",
    "geometry": {
       "type": "Point",
       "coordinates":  [ 105.8073409,20.994189 ]
    },
    "properties": {
    "Address":"350 Nguyễn Trãi, Nam Từ Liêm, Hà Nội",
    "name": "TocoToco"
    }
  },
  {
    "type": "Feature",
    "geometry": {
       "type": "Point",
       "coordinates":  [ 105.8284619,21.0003211 ]
    },
    "properties": {
    "Address":"Tầng 5 TTTM Artemis, số 3 Lê Trọng Tấn",
    "name": "TocoToco"
    }
  },
  {
    "type": "Feature",
    "geometry": {
       "type": "Point",
       "coordinates":  [ 105.7682795,20.9650883 ]
    },
    "properties": {
    "Address":"237 Quang Trung, Hà Đông, Hà Nội",
    "name": "TocoToco"
    }
  },
  {
    "type": "Feature",
    "geometry": {
       "type": "Point",
       "coordinates":  [ 105.8815168,21.0496827 ]
    },
    "properties": {
    "Address":"157 Nguyễn Văn Cừ, Long Biên, Hà Nội",
    "name": "TocoToco"
    }
  },
  {
    "type": "Feature",
    "geometry": {
       "type": "Point",
       "coordinates":  [ 105.8502631,21.0039544 ]
    },
    "properties": {
    "Address":"259A Bạch Mai, HBT, Hà Nội",
    "name": "TocoToco"
    }
  },
  {
    "type": "Feature",
    "geometry": {
       "type": "Point",
       "coordinates":  [ 105.839001,21.01895 ]
    },
    "properties": {
    "Address":"19, Khâm Thiên, Đống Đa, Hà Nội",
    "name": "TocoToco"
    }
  },
  {
    "type": "Feature",
    "geometry": {
       "type": "Point",
       "coordinates":  [ 105.7755678,21.0368172 ]
    },
    "properties": {
    "Address":"60 Hồ Tùng Mậu, Cầu Giấy, Hà Nội",
    "name": "TocoToco"
    }
  },
  {
    "type": "Feature",
    "geometry": {
       "type": "Point",
       "coordinates":  [ 105.851666,21.032243 ]
    },
    "properties": {
    "Address":"114 Cầu Gỗ, Hoàn Kiếm",
    "name": "TocoToco"
    }
  },
  {
    "type": "Feature",
    "geometry": {
       "type": "Point",
       "coordinates":  [ 105.831964,21.006304 ]
    },
    "properties": {
    "Address":"T6 Vincom Phạm Ngọc Thạch, Đống Đa",
    "name": "TocoToco"
    }
  },
  {
    "type": "Feature",
    "geometry": {
       "type": "Point",
       "coordinates":  [ 105.850431,20.999416 ]
    },
    "properties": {
    "Address":"451 Bạch Mai, Hà Nội",
    "name": "TocoToco"
    }
  },
  {
    "type": "Feature",
    "geometry": {
       "type": "Point",
       "coordinates":  [ 105.80218,21.029886 ]
    },
    "properties": {
    "Address":"262 Cầu Giấy, Hà Nội",
    "name": "TocoToco"
    }
  },
  {
    "type": "Feature",
    "geometry": {
       "type": "Point",
       "coordinates":  [ 105.7937259,21.0344352 ]
    },
    "properties": {
    "Address":"54 Cầu Giấy, Ba Đình, Hà Nội",
    "name": "TocoToco"
    }
  },
  {
    "type": "Feature",
    "geometry": {
       "type": "Point",
       "coordinates":  [ 105.7870825,21.0360519 ]
    },
    "properties": {
    "Address":"Số 2 Trần Thái Tông, Cầu Giấy",
    "name": "TocoToco"
    }
  },
  {
    "type": "Feature",
    "geometry": {
       "type": "Point",
       "coordinates":  [ 105.8273211,21.0199497 ]
    },
    "properties": {
    "Address":"146 Ô Chợ Dừa, Đống Đa, Hà Nội",
    "name": "TocoToco"
    }
  },
  {
    "type": "Feature",
    "geometry": {
       "type": "Point",
       "coordinates":  [ 105.8313419,21.026246 ]
    },
    "properties": {
    "Address":"59 Tôn Đức Thắng, Đống Đa, Hà Nội",
    "name": "TocoToco"
    }
  },
  {
    "type": "Feature",
    "geometry": {
       "type": "Point",
       "coordinates":  [ 105.8465329,20.985497 ]
    },
    "properties": {
    "Address":"387 Trương Định, Hoàng Mai",
    "name": "TocoToco"
    }
  },
  {
    "type": "Feature",
    "geometry": {
       "type": "Point",
       "coordinates":  [ 105.7749158,21.0741981 ]
    },
    "properties": {
    "Address":"93 Lê Văn Hiến, Bắc Từ Liêm, Hà Nội",
    "name": "TocoToco"
    }
  },
  {
    "type": "Feature",
    "geometry": {
       "type": "Point",
       "coordinates":  [ 105.7628381,20.9605479 ]
    },
    "properties": {
    "Address":"679 Quang Trung, Phú La, Hà Đông, Hanoi",
    "name": "TocoToco"
    }
  },
  {
    "type": "Feature",
    "geometry": {
       "type": "Point",
       "coordinates":  [ 105.8504818,21.0322406 ]
    },
    "properties": {
    "Address":"57 Cầu Gỗ, Hoàn Kiếm, Hà Nội",
    "name": "TocoToco"
    }
  },
  {
    "type": "Feature",
    "geometry": {
       "type": "Point",
       "coordinates":  [ 105.849723,21.0236139 ]
    },
    "properties": {
    "Address":"42F Lý Thường Kiệt, Hoàn Kiếm",
    "name": "TocoToco"
    }
  },
  {
    "type": "Feature",
    "geometry": {
       "type": "Point",
       "coordinates":  [ 105.8364571,21.010375 ]
    },
    "properties": {
    "Address":"14b4 Phạm Ngọc Thạch,Hà Nội ",
    "name": "TocoToco"
    }
  },
  {
    "type": "Feature",
    "geometry": {
       "type": "Point",
       "coordinates":  [ 105.8234609,21.011389 ]
    },
    "properties": {
    "Address":"137 Tây Sơn - Đống Đa - Hà Nội",
    "name": "TocoToco"
    }
  },
  {
    "type": "Feature",
    "geometry": {
       "type": "Point",
       "coordinates":  [ 105.8444689,21.032021 ]
    },
    "properties": {
    "Address":"Số 2 Nguyễn Văn Tố, Hoàn Kiếm, Hà Nội",
    "name": "TocoToco"
    }
  },
  {
    "type": "Feature",
    "geometry": {
       "type": "Point",
       "coordinates":  [ 105.7852284,21.0415699 ]
    },
    "properties": {
    "Address":"253 Trần Quốc Hoàn,Dịch Vọng, Cầu Giấy",
    "name": "TocoToco"
    }
  },
  {
    "type": "Feature",
    "geometry": {
       "type": "Point",
       "coordinates":  [ 105.8470369,21.010539 ]
    },
    "properties": {
    "Address":"25 Lê Đại Hành, HBT, Hà Nội",
    "name": "TocoToco"
    }
  },
  {
    "type": "Feature",
    "geometry": {
       "type": "Point",
       "coordinates":  [ 105.851139,20.982316 ]
    },
    "properties": {
    "Address":"12 Tân Mai, Hoàng Mai",
    "name": "TocoToco"
    }
  },
  {
    "type": "Feature",
    "geometry": {
       "type": "Point",
       "coordinates":  [ 105.812417,21.0280475 ]
    },
    "properties": {
    "Address":"54 Nguyễn Chí Thanh, Ba Đình, Hà Nội",
    "name": "TocoToco"
    }
  },
  {
    "type": "Feature",
    "geometry": {
       "type": "Point",
       "coordinates":  [ 105.853137,21.025119 ]
    },
    "properties": {
    "Address":"4B Hàng Bài, Quận Hoàn Kiếm, Hà Nội",
    "name": "TocoToco"
    }
  },
  {
    "type": "Feature",
    "geometry": {
       "type": "Point",
       "coordinates":  [ 105.844713,21.0250999 ]
    },
    "properties": {
    "Address":"60 Lý Thường Kiệt, Hà Nội",
    "name": "Hefkcha Lí Thường Kiệt"
    }
  },
  {
    "type": "Feature",
    "geometry": {
       "type": "Point",
       "coordinates":  [ 105.8479169,21.023502 ]
    },
    "properties": {
    "Address":"42C Lý Thường Kiệt, Hà Nội",
    "name": "Heekcaa Lí Thường Kiệt"
    }
  },
  {
    "type": "Feature",
    "geometry": {
       "type": "Point",
       "coordinates":  [ 105.8503884,21.0091836 ]
    },
    "properties": {
    "Address":"7 Lê Đại Hành, Hà Nội",
    "name": "Heekcaa Lê Đại Hành"
    }
  },
  {
    "type": "Feature",
    "geometry": {
       "type": "Point",
       "coordinates":  [ 105.8279079,21.0193681 ]
    },
    "properties": {
    "Address":"51A Ô Chợ Dừa, Đống Đa, Hà Nội",
    "name": "Wang tea"
    }
  },
  {
    "type": "Feature",
    "geometry": {
       "type": "Point",
       "coordinates":  [ 105.835717,21.004779 ]
    },
    "properties": {
    "Address":"Số 4 - B14 Lương Định Của, Hà Nội",
    "name": "Taster's Choice"
    }
  },
  {
    "type": "Feature",
    "geometry": {
       "type": "Point",
       "coordinates":  [ 105.8495439,21.018864 ]
    },
    "properties": {
    "Address":"30 Phố Huế, Hà Nội",
    "name": "Taster's Choice"
    }
  },
  {
    "type": "Feature",
    "geometry": {
       "type": "Point",
       "coordinates":  [ 105.804331,21.0234859 ]
    },
    "properties": {
    "Address":"58 Chùa Láng, Hà Nội",
    "name": "Taster's Choice"
    }
  },
  {
    "type": "Feature",
    "geometry": {
       "type": "Point",
       "coordinates":  [ 105.844356,21.001883 ]
    },
    "properties": {
    "Address":"73 Lê Thanh Nghị, Hà Nội",
    "name": "Taster's Choice"
    }
  },
  {
    "type": "Feature",
    "geometry": {
       "type": "Point",
       "coordinates":  [ 105.8256234,21.0194228 ]
    },
    "properties": {
    "Address":"71 Ô Chợ Dừa, Hà Nội",
    "name": "Taster's Choice"
    }
  },
  {
    "type": "Feature",
    "geometry": {
       "type": "Point",
       "coordinates":  [ 105.7992885,20.9903587 ]
    },
    "properties": {
    "Address":"212C Nguyễn Trãi, Hà Nội",
    "name": "Taster's Choice"
    }
  },
  {
    "type": "Feature",
    "geometry": {
       "type": "Point",
       "coordinates":  [ 105.8489722,21.0107637 ]
    },
    "properties": {
    "Address":"20 Lê Đại Hành, Hai Bà Trưng, Hà Nội",
    "name": "Citeafun"
    }
  },
  {
    "type": "Feature",
    "geometry": {
       "type": "Point",
       "coordinates":  [ 105.8256346,21.0209301 ]
    },
    "properties": {
    "Address":"34 Hoàng Cầu, Đống Đa, Hà Nội",
    "name": "Citeafun"
    }
  },
  {
    "type": "Feature",
    "geometry": {
       "type": "Point",
       "coordinates":  [ 105.8456859,21.0037027 ]
    },
    "properties": {
    "Address":"17 Tạ Quang Bửu, Hai Bà Trưng, Hà Nội",
    "name": "Citeafun"
    }
  },
  {
    "type": "Feature",
    "geometry": {
       "type": "Point",
       "coordinates":  [ 105.8403999,21.042431 ]
    },
    "properties": {
    "Address":"124 Quán Thánh, Hà Nội",
    "name": "Goky"
    }
  },
  {
    "type": "Feature",
    "geometry": {
       "type": "Point",
       "coordinates":  [ 105.825169,21.027327 ]
    },
    "properties": {
    "Address":"183 Giảng Võ, Hà Nội",
    "name": "Goky"
    }
  },
  {
    "type": "Feature",
    "geometry": {
       "type": "Point",
       "coordinates":  [ 105.8496477,21.0121725 ]
    },
    "properties": {
    "Address":"233 Phố Huế, Hà Nội",
    "name": "Goky"
    }
  },
  {
    "type": "Feature",
    "geometry": {
       "type": "Point",
       "coordinates":  [ 105.8197709,21.010998 ]
    },
    "properties": {
    "Address":"25 Thái Hà, Hà Nội",
    "name": "Goky"
    }
  },
  {
    "type": "Feature",
    "geometry": {
       "type": "Point",
       "coordinates":  [ 105.7936749,21.042378 ]
    },
    "properties": {
    "Address":"29 Hai Bà Trưng",
    "name": "Goky"
    }
  },
  {
    "type": "Feature",
    "geometry": {
       "type": "Point",
       "coordinates":  [ 105.8111167,21.0112589 ]
    },
    "properties": {
    "Address":"106A-B9 Tô Hiệu, Cầu Giấy, Hà Nội",
    "name": "Goky"
    }
  },
  {
    "type": "Feature",
    "geometry": {
       "type": "Point",
       "coordinates":  [ 105.8111167,21.0112589 ]
    },
    "properties": {
    "Address":"124 Láng Hạ, Láng Hạ, Quận Đống Đa, Hà Nội",
    "name": "Goky"
    }
  },
  {
    "type": "Feature",
    "geometry": {
       "type": "Point",
       "coordinates":  [ 105.806951,20.993909 ]
    },
    "properties": {
    "Address":"370 Nguyễn Trãi, Hà Nội",
    "name": "Goky"
    }
  },
  {
    "type": "Feature",
    "geometry": {
       "type": "Point",
       "coordinates":  [ 105.8592939,20.995925 ]
    },
    "properties": {
    "Address":"318 Minh Khai, Mai Động, Quận Hai Bà Trưng, Hà Nội",
    "name": "Goky"
    }
  },
  {
    "type": "Feature",
    "geometry": {
       "type": "Point",
       "coordinates":  [ 105.8156528,20.9969019 ]
    },
    "properties": {
    "Address":"280 Thượng Đình, Thượng Đình, Quận Thanh Xuân, Hà Nội",
    "name": "Goky"
    }
  },
  {
    "type": "Feature",
    "geometry": {
       "type": "Point",
       "coordinates":  [ 105.8291096,21.0191612 ]
    },
    "properties": {
    "Address":"19 Ô Chợ Dừa, Hà Nội",
    "name": "Goky"
    }
  },
  {
    "type": "Feature",
    "geometry": {
       "type": "Point",
       "coordinates":  [ 105.7779,21.036749 ]
    },
    "properties": {
    "Address":"88 Hồ Tùng Mậu, Mai Dịch, Quận Cầu Giấy, Hà Nội",
    "name": "Goky"
    }
  },
  {
    "type": "Feature",
    "geometry": {
       "type": "Point",
       "coordinates":  [ 105.851666,21.01823 ]
    },
    "properties": {
    "Address":"47 Phố Huế, Hà Nội",
    "name": "ChaChaGo"
    }
  },
  {
    "type": "Feature",
    "geometry": {
       "type": "Point",
       "coordinates":  [ 105.8257243,21.0196274 ]
    },
    "properties": {
    "Address":"113 Ô Chợ Dừa, Hà Nội",
    "name": "ChaChaGo"
    }
  },
  {
    "type": "Feature",
    "geometry": {
       "type": "Point",
       "coordinates":  [ 105.7749406,20.9664576 ]
    },
    "properties": {
    "Address":"124 Tô Hiệu, Hà Nội",
    "name": "House of Cha"
    }
  },
  {
    "type": "Feature",
    "geometry": {
       "type": "Point",
       "coordinates":  [ 105.847202,21.040285 ]
    },
    "properties": {
    "Address":"4 Quán Thánh, Hà Nội",
    "name": "House of Cha"
    }
  },
  {
    "type": "Feature",
    "geometry": {
       "type": "Point",
       "coordinates":  [ 105.8027418,21.0004435 ]
    },
    "properties": {
    "Address":"102 Ngụy Như Kom Tum, Thanh Xuân, Hà Nội",
    "name": "House of Cha"
    }
  },
  {
    "type": "Feature",
    "geometry": {
       "type": "Point",
       "coordinates":  [ 105.823973,21.031491 ]
    },
    "properties": {
    "Address":"185 Kim Mã, Hà Nội",
    "name": "House of Cha"
    }
  },
  {
    "type": "Feature",
    "geometry": {
       "type": "Point",
       "coordinates":  [ 105.8318491,21.0136949 ]
    },
    "properties": {
    "Address":"157 Xã Đàn, Hà Nội",
    "name": "LeeTee"
    }
  },
  {
    "type": "Feature",
    "geometry": {
       "type": "Point",
       "coordinates":  [ 105.8292959,21.02172 ]
    },
    "properties": {
    "Address":"215 Tôn Đức Thắng, Đống Đa, Hà Nội",
    "name": "XingCha"
    }
  },
  {
    "type": "Feature",
    "geometry": {
       "type": "Point",
       "coordinates":  [ 105.8469461,21.0102038 ]
    },
    "properties": {
    "Address":"193A Bà Triệu, Hà Nội",
    "name": "XingCha"
    }
  },
  {
    "type": "Feature",
    "geometry": {
       "type": "Point",
       "coordinates":  [ 105.8508199,21.033053 ]
    },
    "properties": {
    "Address":"14 Gia Ngư, Hà Nội",
    "name": "XingCha"
    }
  },
  {
    "type": "Feature",
    "geometry": {
       "type": "Point",
       "coordinates":  [ 105.8432827,21.0002417 ]
    },
    "properties": {
    "Address":"183 Trần Đại Nghĩa, Hà Nội",
    "name": "XingCha"
    }
  },
  {
    "type": "Feature",
    "geometry": {
       "type": "Point",
       "coordinates":  [ 105.7998658,21.0368492 ]
    },
    "properties": {
    "Address":"87 Nguyễn Khánh Toàn, Hà Nội",
    "name": "XingCha"
    }
  },
  {
    "type": "Feature",
    "geometry": {
       "type": "Point",
       "coordinates":  [ 105.8694746,21.0037252 ]
    },
    "properties": {
    "Address":"635 Minh Khai, Hà Nội",
    "name": "XingCha"
    }
  },
  {
    "type": "Feature",
    "geometry": {
       "type": "Point",
       "coordinates":  [ 105.791277,21.0216276 ]
    },
    "properties": {
    "Address":"210 Trung Kính, Hà Nội",
    "name": "XingCha"
    }
  },
  {
    "type": "Feature",
    "geometry": {
       "type": "Point",
       "coordinates":  [ 105.8508669,21.028457 ]
    },
    "properties": {
    "Address":"128 Hàng Trống, Hà Nội",
    "name": "Chat Time"
    }
  },
  {
    "type": "Feature",
    "geometry": {
       "type": "Point",
       "coordinates":  [ 105.7716268,20.9692056 ]
    },
    "properties": {
    "Address":"169 Quang Trung, Hà Đông",
    "name": "Feelingtea"
    }
  },
  {
    "type": "Feature",
    "geometry": {
       "type": "Point",
       "coordinates":  [ 105.8337729,21.042996 ]
    },
    "properties": {
    "Address":"11 Thanh Niên, Hà Nội",
    "name": "Feelingtea"
    }
  },
  {
    "type": "Feature",
    "geometry": {
       "type": "Point",
       "coordinates":  [ 105.8573589,21.015326 ]
    },
    "properties": {
    "Address":"4 Trần Thái Tông, Hà Nội ",
    "name": "Feelingtea"
    }
  },
  {
    "type": "Feature",
    "geometry": {
       "type": "Point",
       "coordinates":  [ 105.8424225,20.9589477 ]
    },
    "properties": {
    "Address":"137 Ngọc Hồi, Hà Nội  ",
    "name": "Feelingtea"
    }
  },
  {
    "type": "Feature",
    "geometry": {
       "type": "Point",
       "coordinates":  [ 105.8316238,21.01925 ]
    },
    "properties": {
    "Address":"219C Khâm Thiên, Hà Nội",
    "name": "Feelingtea"
    }
  },
  {
    "type": "Feature",
    "geometry": {
       "type": "Point",
       "coordinates":  [ 105.776852,21.036976 ]
    },
    "properties": {
    "Address":"112 Hồ Tùng Mậu, Hà Nội  ",
    "name": "Feelingtea"
    }
  },
  {
    "type": "Feature",
    "geometry": {
       "type": "Point",
       "coordinates":  [ 105.8092824,21.0377899 ]
    },
    "properties": {
    "Address":"123 Đội Cấn, Hà Nội",
    "name": "Feelingtea"
    }
  },
  {
    "type": "Feature",
    "geometry": {
       "type": "Point",
       "coordinates":  [ 105.8031752,21.0236124 ]
    },
    "properties": {
    "Address":"401 Bạch Mai, Hà Nội",
    "name": "Feelingtea"
    }
  },
  {
    "type": "Feature",
    "geometry": {
       "type": "Point",
       "coordinates":  [ 105.85252,21.032208 ]
    },
    "properties": {
    "Address":"163 Chùa Láng, Hà Nội",
    "name": "Feelingtea"
    }
  },
  {
    "type": "Feature",
    "geometry": {
       "type": "Point",
       "coordinates":  [ 105.8503259,21.032213 ]
    },
    "properties": {
    "Address":"45 Cầu Gỗ, Hà Nội",
    "name": "Feelingtea"
    }
  },
  {
    "type": "Feature",
    "geometry": {
       "type": "Point",
       "coordinates":  [ 105.842468,21.027815 ]
    },
    "properties": {
    "Address":"59 Cửa Nam, Hà Nội",
    "name": "Feelingtea"
    }
  },
  {
    "type": "Feature",
    "geometry": {
       "type": "Point",
       "coordinates":  [ 105.825633,21.028244 ]
    },
    "properties": {
    "Address":"155 Giảng Võ, Hà Nội",
    "name": "Feelingtea"
    }
  },
  {
    "type": "Feature",
    "geometry": {
       "type": "Point",
       "coordinates":  [ 105.8458952,20.9972477 ]
    },
    "properties": {
    "Address":"147 Trần Đại Nghĩa, Hà Nội",
    "name": "Feelingtea"
    }
  },
  {
    "type": "Feature",
    "geometry": {
       "type": "Point",
       "coordinates":  [ 105.814251,20.986004 ]
    },
    "properties": {
    "Address":"22 Khương Hạ, Hà Nội",
    "name": "Feelingtea"
    }
  },
  {
    "type": "Feature",
    "geometry": {
       "type": "Point",
       "coordinates":  [ 105.8685868,21.046046 ]
    },
    "properties": {
    "Address":"162 Ngọc Lâm, Hà Nội",
    "name": "Feelingtea"
    }
  },
  {
    "type": "Feature",
    "geometry": {
       "type": "Point",
       "coordinates":  [ 105.849993,21.009772 ]
    },
    "properties": {
    "Address":"13 Lê Đại Hành, Hà Nội",
    "name": "Feelingtea"
    }
  },
  {
    "type": "Feature",
    "geometry": {
       "type": "Point",
       "coordinates":  [ 105.8600039,20.9991219 ]
    },
    "properties": {
    "Address":"491 Kim Ngưu, Hà Nội",
    "name": "Feelingtea"
    }
  },
  {
    "type": "Feature",
    "geometry": {
       "type": "Point",
       "coordinates":  [ 105.7915335,20.9647329 ]
    },
    "properties": {
    "Address":"68 Phùng Hưng, Hà Đông  ",
    "name": "Feelingtea"
    }
  },
  {
    "type": "Feature",
    "geometry": {
       "type": "Point",
       "coordinates":  [ 105.830645,21.016982 ]
    },
    "properties": {
    "Address":"99 Xã Đàn, Hà Nội",
    "name": "Feelingtea"
    }
  },
  {
    "type": "Feature",
    "geometry": {
       "type": "Point",
       "coordinates":  [ 105.8151917,21.0123984 ]
    },
    "properties": {
    "Address":"61 Yên Lãng, Hà Nội",
    "name": "Feelingtea"
    }
  },
  {
    "type": "Feature",
    "geometry": {
       "type": "Point",
       "coordinates":  [ 105.8700649,21.043503 ]
    },
    "properties": {
    "Address":"192 Nguyễn Văn Cừ, Hà Nội",
    "name": "Feelingtea"
    }
  },
  {
    "type": "Feature",
    "geometry": {
       "type": "Point",
       "coordinates":  [ 105.7802382,21.0361488 ]
    },
    "properties": {
    "Address":"K1 -2A Tầng 1 TT-TM Indochina Plaza, Hà Nội",
    "name": "Feelingtea"
    }
  },
  {
    "type": "Feature",
    "geometry": {
       "type": "Point",
       "coordinates":  [ 105.8581569,21.010136 ]
    },
    "properties": {
    "Address":"226 Lò Đúc, Hà Nội",
    "name": "Feelingtea"
    }
  },
  {
    "type": "Feature",
    "geometry": {
       "type": "Point",
       "coordinates":  [ 105.8473169,20.983627 ]
    },
    "properties": {
    "Address":"128 Tân Mai, Hà Nội",
    "name": "Feelingtea"
    }
  },
  {
    "type": "Feature",
    "geometry": {
       "type": "Point",
       "coordinates":  [ 105.8102177,21.0280327 ]
    },
    "properties": {
    "Address":"145 Nguyễn Chí Thanh, Hà Nội",
    "name": "Trà Tiên Huởng"
    }
  }
]
}